City_ID,City,Country,Lat,Lng,Max Temp,Humidity,Cloudiness,Wind Speed,Current Weather
0,Castro,BR,-24.7911,-50.0119,76.33,50,0,6.15,clear sky
1,Hirado,JP,33.3597,129.5531,46.0,93,8,4.0,clear sky
2,Tupanatinga,BR,-8.7533,-37.3397,95.11,15,10,11.1,clear sky
3,Westport,US,41.1415,-73.3579,44.6,39,40,20.71,scattered clouds
4,Tiksi,RU,71.6872,128.8694,-25.46,86,100,5.97,overcast clouds
5,Mataura,NZ,-46.1927,168.8643,52.38,90,5,1.79,clear sky
6,Albany,US,42.6001,-73.9662,39.0,59,75,12.66,broken clouds
7,Coihaique,CL,-45.5752,-72.0662,73.4,38,75,6.91,broken clouds
8,Hermanus,ZA,-34.4187,19.2345,70.0,85,92,1.01,overcast clouds
9,Ilulissat,GL,69.2167,-51.1,21.2,38,40,20.71,snow
10,Ikalamavony,MG,-21.15,46.5833,71.26,82,100,1.48,light rain
11,Barao De Melgaco,BR,-16.1944,-55.9675,89.6,48,75,3.44,broken clouds
12,Busselton,AU,-33.65,115.3333,59.0,95,100,1.99,light rain
13,Upernavik,GL,72.7868,-56.1549,19.96,80,100,4.99,overcast clouds
14,Maragogi,BR,-9.0122,-35.2225,82.89,66,85,12.86,overcast clouds
15,Thompson,CA,55.7435,-97.8558,-31.0,61,75,14.97,snow
16,Port Elizabeth,ZA,-33.918,25.5701,69.8,94,90,10.36,overcast clouds
17,Qaanaaq,GL,77.484,-69.3632,12.16,89,100,7.63,overcast clouds
18,Rikitea,PF,-23.1203,-134.9692,77.65,74,100,12.37,overcast clouds
19,Jamestown,US,42.097,-79.2353,21.99,53,1,20.71,clear sky
20,Kapaa,US,22.0752,-159.319,62.01,88,1,6.91,clear sky
21,Rio Gallegos,AR,-51.6226,-69.2181,62.6,27,20,11.5,few clouds
22,Ushuaia,AR,-54.8,-68.3,53.6,62,20,23.02,few clouds
23,Bluff,NZ,-46.6,168.3333,53.69,84,10,4.61,clear sky
24,Coquimbo,CL,-29.9533,-71.3436,68.0,64,20,10.36,few clouds
25,Susanville,US,40.4163,-120.653,39.0,69,1,0.94,clear sky
26,Dzerzhinsk,RU,56.2389,43.4631,-2.0,71,75,11.18,light snow
27,Victoria,HK,22.2855,114.1577,66.0,73,0,3.96,clear sky
28,Jacksonville,US,30.3322,-81.6556,55.0,82,90,10.36,overcast clouds
29,Butaritari,KI,3.0707,172.7902,81.03,80,89,21.12,light rain
30,Huilong,CN,31.8111,121.655,53.01,89,0,6.35,clear sky
31,Atuona,PF,-9.8,-139.0333,80.11,78,100,22.17,overcast clouds
32,Saint George,US,37.1041,-113.5841,53.01,39,1,3.44,clear sky
33,Chokurdakh,RU,70.6333,147.9167,-20.16,87,61,8.48,broken clouds
34,Caravelas,BR,-17.7125,-39.2481,83.12,76,94,10.6,overcast clouds
35,Nikolskoye,RU,59.7035,30.7861,10.4,79,75,15.66,snow
36,Bethel,US,41.3712,-73.414,41.0,33,40,11.5,scattered clouds
37,Tabas,IR,33.5959,56.9244,53.6,22,3,6.91,clear sky
38,Finspang,SE,58.7058,15.7674,8.6,85,20,5.75,few clouds
39,Saint-Pierre,RE,-21.3393,55.4781,79.0,83,75,3.44,broken clouds
40,Tuatapere,NZ,-46.1333,167.6833,54.0,82,2,3.8,clear sky
41,Tasiilaq,GL,65.6145,-37.6368,32.0,80,75,43.73,light rain
42,Bahia Blanca,AR,-38.7196,-62.2724,85.82,37,0,16.35,clear sky
43,Bambous Virieux,MU,-20.3428,57.7575,80.01,83,40,6.91,scattered clouds
44,Kruisfontein,ZA,-34.0033,24.7314,69.01,87,0,3.0,clear sky
45,Belmonte,BR,-15.8631,-38.8828,86.0,79,75,10.36,broken clouds
46,Hobart,AU,-42.8794,147.3294,57.99,82,10,4.61,clear sky
47,New Norfolk,AU,-42.7826,147.0587,57.99,78,25,1.99,scattered clouds
48,Vao,NC,-22.6667,167.4833,77.45,86,0,8.7,clear sky
49,Kondol,RU,52.8189,45.058,-1.97,92,100,11.14,overcast clouds
50,Cape Town,ZA,-33.9258,18.4232,73.99,68,75,14.97,broken clouds
51,Hamilton,US,39.1834,-84.5333,33.01,40,1,3.44,clear sky
52,Carnarvon,AU,-24.8667,113.6333,80.6,100,1,12.66,clear sky
53,Verkhnyaya Inta,RU,65.9811,60.3094,-28.28,84,59,10.2,broken clouds
54,Gunjur,GM,13.2019,-16.7339,78.8,38,95,11.5,overcast clouds
55,Dingle,PH,10.9995,122.6711,74.57,92,46,7.74,scattered clouds
56,Pareora,NZ,-44.4871,171.2132,53.62,89,70,5.91,broken clouds
57,Sawang Daen Din,TH,17.4753,103.4575,69.01,67,10,9.01,clear sky
58,Torbay,CA,47.6666,-52.7314,36.0,87,90,11.5,light rain
59,Takoradi,GH,4.8845,-1.7554,80.62,86,10,8.81,clear sky
60,Provideniya,RU,64.3833,-173.3,1.45,91,80,4.41,broken clouds
61,Hithadhoo,MV,-0.6,73.0833,81.45,78,15,14.94,few clouds
62,Ifanadiana,MG,-21.3,47.6333,72.27,92,100,0.85,light rain
63,Lorengau,PG,-2.0226,147.2712,81.75,76,91,3.69,overcast clouds
64,Hilo,US,19.7297,-155.09,66.0,63,1,5.75,clear sky
65,Sicamous,CA,50.8331,-118.9856,34.0,93,100,2.35,overcast clouds
66,Ostrovnoy,RU,68.0531,39.5131,10.8,92,100,11.54,overcast clouds
67,Mount Gambier,AU,-37.8333,140.7667,55.4,88,90,10.36,overcast clouds
68,Souillac,MU,-20.5167,57.5167,78.8,83,40,6.91,scattered clouds
69,Sao Filipe,CV,14.8961,-24.4956,70.38,74,100,14.88,overcast clouds
70,Smidovich,RU,48.6,133.8167,-12.51,89,46,2.51,scattered clouds
71,Ponta Do Sol,PT,32.6667,-17.1,59.0,77,40,9.22,scattered clouds
72,Bud,US,39.447,-86.1758,25.0,50,1,4.41,clear sky
73,Fairbanks,US,64.8378,-147.7164,-8.0,77,90,0.76,light snow
74,Vanimo,PG,-2.6741,141.3028,76.87,87,100,5.12,overcast clouds
75,Melville,US,40.7934,-73.4151,45.0,36,1,21.85,clear sky
76,Abu Kamal,SY,34.4506,40.9171,55.8,50,0,9.24,clear sky
77,Saint-Philippe,RE,-21.3585,55.7679,79.0,83,75,3.44,light rain
78,Kavieng,PG,-2.5744,150.7967,81.63,71,53,2.68,broken clouds
79,Geraldton,AU,-28.7667,114.6,69.8,94,90,18.41,overcast clouds
80,Hobyo,SO,5.3505,48.5268,77.56,76,0,14.72,clear sky
81,Port Alfred,ZA,-33.5906,26.891,73.0,92,82,7.58,broken clouds
82,Abnub,EG,27.2696,31.1511,59.0,67,0,10.36,clear sky
83,Kodiak,US,57.79,-152.4072,28.4,64,1,3.44,clear sky
84,Clyde River,CA,70.4692,-68.5914,-14.8,84,40,4.61,scattered clouds
85,Hatillo,PR,18.4863,-66.8254,88.0,66,47,5.01,scattered clouds
86,Inuvik,CA,68.3499,-133.7218,-23.8,76,100,1.14,overcast clouds
87,Puerto Ayora,EC,-0.7393,-90.3518,80.6,78,75,11.5,broken clouds
88,Tessalit,ML,20.1986,1.0114,77.58,16,18,8.66,few clouds
89,Lagoa,PT,39.05,-27.9833,59.92,90,100,23.35,overcast clouds
90,Lebu,CL,-37.6167,-73.65,62.8,78,47,7.02,scattered clouds
91,Airai,TL,-8.9266,125.4092,60.19,100,100,2.28,overcast clouds
92,Nanortalik,GL,60.1432,-45.2371,22.62,78,0,4.92,clear sky
93,San Patricio,US,28.017,-97.5169,68.0,73,90,11.5,overcast clouds
94,Labelle,US,26.7617,-81.4384,86.0,54,75,13.8,broken clouds
95,General Roca,AR,-39.0333,-67.5833,82.4,42,0,9.22,clear sky
96,Koslan,RU,63.4564,48.8989,-10.71,87,100,9.8,overcast clouds
97,Komsomolskiy,UZ,40.4272,71.7189,41.0,56,100,4.61,mist
98,Langenau,DE,48.4962,10.1185,42.01,88,100,3.0,overcast clouds
99,Barrow,US,71.2906,-156.7887,-0.4,71,90,11.5,haze
100,Cururupu,BR,-1.8283,-44.8683,86.97,59,90,7.52,overcast clouds
101,Cherskiy,RU,68.75,161.3,-9.35,80,0,5.86,clear sky
102,San Ramon De La Nueva Oran,AR,-23.1322,-64.326,91.49,35,31,3.6,scattered clouds
103,Saskylakh,RU,71.9167,114.0833,-34.74,81,97,5.97,overcast clouds
104,Oussouye,SN,12.485,-16.5469,78.8,47,0,9.22,clear sky
105,Buraydah,SA,26.326,43.975,51.8,100,75,6.91,broken clouds
106,Maceio,BR,-9.6658,-35.7353,89.6,58,0,18.41,clear sky
107,Vestmannaeyjar,IS,63.4427,-20.2734,37.4,75,20,29.93,few clouds
108,Katsuura,JP,35.1333,140.3,42.8,65,0,8.05,clear sky
109,Asau,RO,46.4333,26.4,30.0,75,100,4.05,overcast clouds
110,Plettenberg Bay,ZA,-34.0527,23.3716,67.75,87,0,7.09,clear sky
111,Adrar,MR,20.5022,-10.0711,64.2,29,100,10.69,overcast clouds
112,Cabo San Lucas,MX,22.8909,-109.9124,80.01,56,1,6.91,clear sky
113,Nalut,LY,30.3333,10.85,69.08,22,99,12.71,overcast clouds
114,Luderitz,NA,-26.6481,15.1594,72.37,53,0,27.34,clear sky
115,Mahebourg,MU,-20.4081,57.7,78.8,83,40,6.91,scattered clouds
116,Galesong,ID,-5.3166,119.3661,73.4,100,20,2.3,few clouds
117,Santa Engracia,ES,41.9406,-1.3245,51.01,87,90,18.41,overcast clouds
118,Chapais,CA,49.7834,-74.8492,17.6,67,90,18.41,light snow
119,Menongue,AO,-14.6585,17.691,69.19,79,100,3.56,overcast clouds
120,Monroe,US,43.1501,-77.6831,27.0,65,100,5.99,overcast clouds
121,Rovnoye,RU,50.7765,46.0509,16.48,91,97,13.15,overcast clouds
122,Japura,ID,-0.3167,102.35,73.54,89,80,0.74,broken clouds
123,Ziarat,PK,30.3823,67.7282,41.9,52,0,4.41,clear sky
124,Dingli,MT,35.8614,14.3822,62.01,88,0,6.91,clear sky
125,Watertown,US,42.3709,-71.1828,42.01,38,40,18.41,scattered clouds
126,Rakkestad,NO,59.4251,11.3454,18.0,86,0,4.74,clear sky
127,Tulun,RU,54.5611,100.5792,11.66,93,100,4.65,overcast clouds
128,Ribeira Grande,PT,38.5167,-28.7,60.8,88,75,23.02,broken clouds
129,Punta Arenas,CL,-53.15,-70.9167,59.0,41,40,21.85,scattered clouds
130,Dikson,RU,73.5069,80.5464,-29.56,86,85,10.33,overcast clouds
131,Ulaangom,MN,49.9811,92.0667,-7.37,89,40,2.04,scattered clouds
132,Vaini,TO,-21.2,-175.2,75.2,88,75,5.75,broken clouds
133,Tchibanga,GA,-2.85,11.0333,74.86,96,100,4.25,light rain
134,Chuy,UY,-33.6971,-53.4616,83.3,46,0,10.29,clear sky
135,Itarema,BR,-2.9248,-39.9167,85.15,62,57,15.61,broken clouds
136,Wairoa,NZ,-39.0333,177.3667,59.0,92,100,1.99,overcast clouds
137,Catuday,PH,16.2923,119.8062,77.45,80,3,9.64,clear sky
138,Chiang Khong,TH,20.2613,100.4046,68.0,94,0,1.43,clear sky
139,Dzhebariki-Khaya,RU,62.2167,135.8,-25.35,85,100,1.16,overcast clouds
140,Khatanga,RU,71.9667,102.5,-36.62,78,0,6.89,clear sky
141,Vaitape,PF,-16.5167,-151.75,81.34,71,0,11.74,clear sky
142,Matagami,CA,49.7502,-77.6328,14.0,79,90,11.5,light snow
143,Caborca,MX,30.5838,-111.101,62.01,36,0,3.0,clear sky
144,Tual,ID,-5.6667,132.75,83.89,77,100,19.89,overcast clouds
145,Benguela,AO,-12.5763,13.4055,74.91,81,1,5.82,clear sky
146,Tuktoyaktuk,CA,69.4541,-133.0374,-16.6,76,90,19.57,snow
147,Hortolandia,BR,-22.8583,-47.22,86.0,39,40,11.5,light rain
148,Asfi,MA,32.2994,-9.2372,57.04,72,98,12.82,overcast clouds
149,Hay River,CA,60.8156,-115.7999,-32.8,68,58,4.03,broken clouds
150,Zhaoqing,CN,23.0512,112.4597,72.0,99,0,0.92,clear sky
151,Fereydun Kenar,IR,36.6864,52.5225,53.11,86,100,10.83,overcast clouds
152,Nabire,ID,-3.3667,135.4833,74.97,85,100,3.89,overcast clouds
153,Santa Maria,BR,-29.6842,-53.8069,78.8,57,20,5.75,few clouds
154,Amga,RU,60.8953,131.9608,-28.98,83,100,1.34,overcast clouds
155,Neuquen,AR,-38.9516,-68.0591,82.4,42,0,9.22,clear sky
156,Georgetown,MY,5.4112,100.3354,82.99,89,20,3.44,few clouds
157,Avarua,CK,-21.2078,-159.775,80.6,83,21,5.75,few clouds
158,Siocon,PH,7.7061,122.1353,77.4,82,100,9.62,overcast clouds
159,Faya,SA,18.3851,42.4509,51.8,82,20,8.05,few clouds
160,Nishihara,JP,26.1842,127.7558,66.2,72,20,5.75,few clouds
161,Mezhdurechensk,RU,53.6942,88.0603,24.17,97,21,3.2,few clouds
162,Paita,PE,-5.0892,-81.1144,87.8,48,3,11.5,clear sky
163,Sundsvall,SE,62.3913,17.3063,24.01,79,90,9.22,overcast clouds
164,Vardo,NO,70.3705,31.1107,23.0,80,40,21.85,light snow
165,Yaan,NG,7.3833,8.5667,85.12,14,0,4.88,clear sky
166,Richards Bay,ZA,-28.783,32.0377,74.23,83,84,6.26,broken clouds
167,Quesnel,CA,52.9999,-122.5029,21.2,86,90,12.66,light snow
168,Kununurra,AU,-15.7667,128.7333,80.6,100,75,6.91,broken clouds
169,Shinshiro,JP,34.9,137.5,50.0,59,0,4.0,clear sky
170,Vila Franca Do Campo,PT,37.7167,-25.4333,61.0,88,75,16.11,broken clouds
171,Alamosa,US,37.4695,-105.87,32.0,34,1,4.61,clear sky
172,Paamiut,GL,61.994,-49.6678,22.57,82,0,6.91,clear sky
173,Kaolinovo,BG,43.6167,27.1167,44.01,90,100,1.99,overcast clouds
174,East London,ZA,-33.0153,27.9116,73.4,94,20,2.3,few clouds
175,Hudiksvall,SE,61.729,17.1036,12.99,94,99,8.23,overcast clouds
176,Viedma,AR,-40.8135,-62.9967,78.01,43,0,1.01,clear sky
177,Bengkulu,ID,-3.8004,102.2655,76.37,78,99,5.03,overcast clouds
178,Acarau,BR,-2.8856,-40.12,85.53,60,85,16.89,overcast clouds
179,Liku,ID,-0.7275,119.8922,75.24,77,100,1.88,overcast clouds
180,Mabamba,TZ,-3.5983,30.5019,66.27,88,100,0.89,overcast clouds
181,Baykit,RU,61.67,96.37,7.5,91,100,5.06,light snow
182,Moose Factory,CA,51.2585,-80.6094,1.4,60,90,19.57,light snow
183,Bodden Town,KY,19.2833,-81.25,86.0,74,40,13.8,scattered clouds
184,Walvis Bay,NA,-22.9575,14.5053,64.99,82,0,8.05,clear sky
185,Bafra,TR,41.5678,35.9069,53.01,61,22,4.0,few clouds
186,Melchor De Mencos,GT,17.0686,-89.1522,86.0,62,0,6.91,clear sky
187,Kigoma,TZ,-4.8769,29.6267,73.4,94,40,8.05,light rain
188,Karratha,AU,-20.7377,116.8463,78.17,73,43,10.74,scattered clouds
189,Peniche,PT,39.3558,-9.3811,53.01,78,60,13.0,broken clouds
190,Mehamn,NO,71.0357,27.8492,25.9,94,100,20.02,light snow
191,Farkhor,TJ,37.4922,69.4036,57.2,35,90,6.71,light rain
192,Sola,VU,-13.8833,167.55,75.2,100,20,5.53,few clouds
193,Sabang,ID,5.8933,95.3214,81.27,81,11,12.93,light rain
194,Namie,JP,37.4833,141.0,45.0,66,0,10.36,clear sky
195,Razole,IN,16.4833,81.8333,64.2,86,25,2.91,scattered clouds
196,Kloulklubed,PW,7.0419,134.2556,78.8,94,75,11.5,broken clouds
197,San Juan,AR,-31.5375,-68.5364,94.96,19,0,6.78,clear sky
198,Belgrade,RS,44.804,20.4651,50.0,81,100,4.61,overcast clouds
199,Kachiry,KZ,53.0675,76.1036,28.31,96,100,16.73,overcast clouds
200,Bonito,BR,-21.1211,-56.4819,82.53,49,0,5.61,clear sky
201,Najran,SA,17.4924,44.1277,69.8,40,40,9.22,scattered clouds
202,Faanui,PF,-16.4833,-151.75,81.28,70,0,10.31,light rain
203,Longyearbyen,SJ,78.2186,15.6401,23.0,74,75,2.3,broken clouds
204,San Andres,CO,12.5847,-81.7006,86.0,74,20,9.22,few clouds
205,Cerqueira Cesar,BR,-23.0356,-49.1661,78.49,57,25,4.76,scattered clouds
206,Mar Del Plata,AR,-38.0023,-57.5575,69.8,64,75,14.97,light rain
207,Rawson,AR,-43.3002,-65.1023,64.83,55,100,23.8,overcast clouds
208,Akdepe,TM,42.0551,59.3788,46.4,81,0,9.22,clear sky
209,Nioki,CD,-2.7167,17.6833,77.59,80,85,2.66,overcast clouds
210,Norman Wells,CA,65.282,-126.8329,-32.8,75,75,4.61,broken clouds
211,Marsabit,KE,2.3284,37.9899,71.51,57,0,7.25,clear sky
212,Kamenka,RU,51.3223,42.7678,15.01,78,100,12.62,overcast clouds
213,Baker City,US,44.7749,-117.8344,39.2,65,1,4.61,clear sky
214,Zhangzhou,CN,24.5133,117.6556,59.0,94,33,6.71,mist
215,Indramayu,ID,-6.3264,108.32,78.55,85,100,11.03,overcast clouds
216,Mwinilunga,ZM,-11.7358,24.4293,66.13,92,100,4.12,moderate rain
217,Kaitangata,NZ,-46.2817,169.8464,52.27,89,4,3.11,clear sky
218,Mlonggo,ID,-6.5333,110.7,78.84,84,75,11.52,broken clouds
219,Evensk,RU,61.95,159.2333,9.0,89,52,17.65,broken clouds
220,Lompoc,US,34.6391,-120.4579,63.0,58,1,3.44,clear sky
221,Hami,CN,42.8,93.45,31.03,80,0,5.03,clear sky
222,Omboue,GA,-1.5746,9.2618,79.48,88,100,6.31,moderate rain
223,Quelimane,MZ,-17.8786,36.8883,86.0,79,40,6.91,scattered clouds
224,Cidreira,BR,-30.1811,-50.2056,76.91,62,13,8.55,few clouds
225,Penzance,GB,50.1186,-5.5371,41.0,81,84,14.97,broken clouds
226,Naze,JP,28.3667,129.4833,59.76,83,100,8.12,overcast clouds
227,Sioux Lookout,CA,50.1001,-91.917,-14.8,64,90,11.5,snow
228,Vezirkopru,TR,41.1436,35.4547,42.8,65,20,1.14,few clouds
229,Comodoro Rivadavia,AR,-45.8667,-67.5,57.2,77,90,17.27,light rain
230,Havre-Saint-Pierre,CA,50.2334,-63.5986,32.0,93,90,12.66,snow
231,Ankang,CN,32.68,109.0172,48.99,31,98,4.0,overcast clouds
232,Ilinskiy,RU,55.619,38.1182,3.2,66,75,17.9,broken clouds
233,Chirongui,YT,-12.9319,45.1483,80.6,78,75,8.05,broken clouds
234,Pushkinskiye Gory,RU,57.0209,28.9103,0.93,95,45,4.81,scattered clouds
235,Santa Cruz,BO,-17.8,-63.1667,91.4,43,40,4.61,scattered clouds
236,Bom Jesus Da Lapa,BR,-13.255,-43.4181,83.05,70,71,4.54,heavy intensity rain
237,Banyo,CM,6.75,11.8167,71.11,23,0,5.26,clear sky
238,Ontario,US,34.0633,-117.6509,71.01,39,1,0.47,clear sky
239,Maningrida,AU,-12.0667,134.2667,77.32,84,100,10.6,overcast clouds
240,San Felipe,VE,10.3399,-68.7425,82.36,55,68,8.41,broken clouds
241,Muroto,JP,33.2833,134.15,52.88,68,0,4.65,clear sky
242,Portales,US,34.1862,-103.3344,54.0,12,1,17.27,clear sky
243,Tahoua,NE,14.8888,5.2692,84.2,10,40,6.91,dust
244,Yellowknife,CA,62.456,-114.3525,-38.99,66,1,2.3,mist
245,Narodychi,UA,51.2029,29.0823,11.53,90,0,8.61,clear sky
246,Broome,US,42.2506,-75.833,32.0,37,40,18.41,scattered clouds
247,Klyuchi,RU,52.2667,79.1667,27.37,93,0,19.6,clear sky
248,Sorong,ID,-0.8833,131.25,80.35,80,100,1.25,overcast clouds
249,Sitka,US,57.0531,-135.33,35.6,80,75,9.22,light snow
250,Yima,CN,34.7381,111.8839,53.01,99,1,5.23,clear sky
251,Bathsheba,BB,13.2167,-59.5167,84.2,54,20,18.41,few clouds
252,Ugoofaaru,MV,5.6667,73.0,81.72,75,0,10.0,clear sky
253,Lixourion,GR,38.2019,20.4314,57.2,88,20,8.55,few clouds
254,Isangel,VU,-19.55,169.2667,78.04,79,0,2.01,clear sky
255,Pato Branco,BR,-26.2286,-52.6706,72.61,61,0,9.26,clear sky
256,Nicoya,CR,10.1483,-85.452,87.8,48,40,4.61,scattered clouds
257,Shenzhen,CN,22.5455,114.0683,68.0,86,0,2.3,clear sky
258,Camacha,PT,33.0833,-16.3333,59.0,63,40,19.57,scattered clouds
259,Hambantota,LK,6.1241,81.1185,73.4,100,20,4.61,few clouds
260,Kota Tinggi,MY,1.7381,103.8999,75.2,94,20,3.89,few clouds
261,Camrose,CA,53.0168,-112.8353,-13.0,66,100,3.0,overcast clouds
262,Port Lincoln,AU,-34.7333,135.8667,60.04,80,47,11.25,scattered clouds
263,Acapulco,MX,16.8634,-99.8901,84.2,65,20,8.05,few clouds
264,Inhumas,BR,-16.3578,-49.4961,78.8,78,75,8.05,light rain
265,Honiara,SB,-9.4333,159.95,77.14,86,100,4.32,light rain
266,Mayya,RU,61.7333,130.2811,-43.6,60,100,4.47,fog
267,Soyo,AO,-6.1349,12.3689,80.76,84,89,10.94,overcast clouds
268,Gondanglegi,ID,-7.7479,112.0132,73.44,91,85,3.91,overcast clouds
269,Merrill,US,45.1805,-89.6835,1.4,55,1,12.66,clear sky
270,Benjamin Constant,BR,-4.3831,-70.0311,86.0,74,75,4.61,broken clouds
271,San Lawrenz,MT,36.0553,14.204,62.01,88,0,6.91,clear sky
272,Kamina,CD,-8.7386,24.9906,66.99,95,100,4.32,overcast clouds
273,Alagoinhas,BR,-12.1356,-38.4192,87.1,55,100,11.48,overcast clouds
274,Henties Bay,NA,-22.116,14.2845,64.99,87,2,1.99,clear sky
275,Keti Bandar,PK,24.1447,67.4497,66.69,53,0,8.32,clear sky
276,Kennewick,US,46.2113,-119.1372,51.01,57,75,29.93,broken clouds
277,Sao Joao Da Barra,BR,-21.6403,-41.0511,75.2,78,75,13.8,moderate rain
278,Hofn,IS,64.2539,-15.2082,34.81,86,98,17.13,snow
279,Atar,MR,20.5169,-13.0499,73.4,13,0,17.27,clear sky
280,Havelock,US,34.8791,-76.9013,50.0,57,75,6.91,broken clouds
281,Laguna,US,38.421,-121.4238,55.0,66,1,4.61,clear sky
282,Egvekinot,RU,66.3167,-179.1667,-8.3,77,11,8.48,few clouds
283,Aasiaat,GL,68.7098,-52.8699,13.44,85,12,16.58,few clouds
284,Keelung,TW,25.1283,121.7419,66.99,94,20,6.91,few clouds
285,Axim,GH,4.8699,-2.2405,80.6,85,0,10.07,clear sky
286,Ballina,AU,-28.8667,153.5667,69.8,94,90,4.5,overcast clouds
287,Arteaga,MX,18.4667,-102.4167,82.31,31,0,4.12,clear sky
288,Moranbah,AU,-22.0016,148.0466,75.9,81,100,10.18,overcast clouds
289,Frome,GB,51.2283,-2.3221,39.0,87,0,5.01,clear sky
290,Aklavik,CA,68.2191,-135.0107,-27.4,68,75,3.44,broken clouds
291,Floro,NO,61.5996,5.0328,24.8,63,0,6.91,clear sky
292,Novobirilyussy,RU,56.9514,90.6661,24.66,97,98,9.69,overcast clouds
293,Hihya,EG,30.6713,31.588,62.6,63,0,4.61,clear sky
294,Northam,GB,51.0333,-4.2167,39.99,94,100,1.99,overcast clouds
295,Cozumel,MX,20.5083,-86.9458,84.2,70,40,11.5,scattered clouds
296,Simao,CN,22.7886,100.9748,55.06,94,62,1.32,broken clouds
297,Znamenskoye,RU,57.1281,73.8282,33.98,92,100,13.51,overcast clouds
298,Coahuayana,MX,18.7333,-103.6833,75.2,64,1,6.44,clear sky
299,Tautira,PF,-17.7333,-149.15,75.2,83,75,10.36,light rain
300,Alofi,NU,-19.0595,-169.9187,75.2,100,100,4.61,overcast clouds
301,Denpasar,ID,-8.65,115.2167,78.8,94,20,2.3,few clouds
302,Otavi,NA,-19.65,17.3333,72.7,67,95,1.41,overcast clouds
303,Watsa,CD,3.0372,29.5355,70.65,33,0,1.79,clear sky
304,Marienburg,PL,54.0359,19.0266,16.0,100,6,4.59,clear sky
305,Fukue,JP,32.6881,128.8419,55.6,70,0,14.07,clear sky
306,Recea,RO,47.6333,23.5167,39.2,100,90,6.91,overcast clouds
307,Saint Anthony,US,45.0205,-93.218,1.4,50,20,18.41,few clouds
308,Topeka,US,39.0483,-95.678,25.0,74,90,13.8,light snow
309,Carauari,BR,-4.8828,-66.8958,90.64,55,59,2.21,broken clouds
310,Hasaki,JP,35.7333,140.8333,37.4,93,20,1.14,fog
311,Bandarbeyla,SO,9.4942,50.8122,76.48,80,0,13.71,clear sky
312,Wanaka,NZ,-44.7,169.15,57.0,78,4,3.22,clear sky
313,Jumla,NP,29.2747,82.1838,27.28,77,0,6.42,clear sky
314,Ossora,RU,59.2353,163.0719,16.75,95,100,25.72,light snow
315,Ancud,CL,-41.8697,-73.8203,77.0,44,0,11.5,clear sky
316,Zhigansk,RU,66.7697,123.3711,-41.44,80,88,10.98,overcast clouds
317,Kavaratti,IN,10.5669,72.642,81.0,65,0,10.0,clear sky
318,Lavrentiya,RU,65.5833,-171.0,-5.8,79,0,3.15,clear sky
319,Homer,US,59.6425,-151.5483,33.8,86,1,4.61,clear sky
320,Sandusky,US,41.3501,-83.1332,18.0,65,0,8.01,clear sky
321,Bowen,AU,-20.0167,148.2333,75.2,94,40,5.21,scattered clouds
322,Jasper,US,37.2001,-94.3502,46.0,60,90,6.91,overcast clouds
323,Port Hardy,CA,50.6996,-127.4199,42.8,93,90,14.97,light rain
324,Oktyabrskiy,RU,54.4815,53.471,-1.37,89,100,12.93,overcast clouds
325,Olafsvik,IS,64.8945,-23.7142,36.09,78,71,15.82,light rain
326,Accrington,GB,53.7538,-2.3586,35.01,90,100,7.0,snow
327,Arlit,NE,18.7369,7.3853,69.1,20,5,3.53,clear sky
328,Constitucion,CL,-35.3333,-72.4167,65.7,69,31,5.97,scattered clouds
329,Necochea,AR,-38.5473,-58.7368,70.0,65,0,8.01,clear sky
330,Slave Lake,CA,55.2834,-114.769,-22.0,69,1,9.22,clear sky
331,Severo-Kurilsk,RU,50.6789,156.125,20.66,94,100,15.37,light snow
332,Scarborough,GB,54.2797,-0.4044,37.0,89,100,11.99,overcast clouds
333,Anadyr,RU,64.75,177.4833,-9.0,77,0,8.95,clear sky
334,Caraballeda,VE,10.6112,-66.8522,87.8,66,20,13.53,few clouds
335,Stornoway,GB,58.2093,-6.3865,37.4,75,75,20.71,broken clouds
336,Borovsk,RU,55.2064,36.4861,1.4,71,75,11.18,broken clouds
337,Rakke,EE,58.9817,26.2544,7.05,95,84,4.5,broken clouds
338,Guangyuan,CN,32.442,105.823,48.42,56,92,3.49,overcast clouds
339,Batamshinskiy,KZ,50.5594,58.2747,10.4,79,75,35.79,snow
340,Imeni Poliny Osipenko,RU,52.4201,136.4853,-6.57,90,98,6.49,overcast clouds
341,Meulaboh,ID,4.1363,96.1285,77.36,87,82,3.24,broken clouds
342,Yekimovichi,RU,54.1129,33.2965,0.79,93,100,8.1,overcast clouds
343,Bindura,ZW,-17.3019,31.3306,69.01,79,100,3.0,overcast clouds
344,Waingapu,ID,-9.6567,120.2641,77.88,80,100,5.93,overcast clouds
345,Grindavik,IS,63.8424,-22.4338,35.6,64,40,13.8,scattered clouds
346,Pacific Grove,US,36.6177,-121.9166,62.01,58,1,8.34,clear sky
347,Talnakh,RU,69.4865,88.3972,-29.09,75,0,3.33,clear sky
348,Codrington,AU,-38.2667,141.9667,58.23,79,100,13.89,overcast clouds
349,Saldanha,ZA,-33.0117,17.9442,69.8,78,78,16.11,broken clouds
350,Svetlogorsk,BY,52.6333,29.7333,3.83,92,25,8.03,scattered clouds
351,Srandakan,ID,-7.9386,110.2506,76.93,85,99,4.65,overcast clouds
352,Raigarh,IN,21.9,83.4,61.79,55,0,6.51,clear sky
353,Bubaque,GW,11.2833,-15.8333,80.8,62,27,12.39,scattered clouds
354,Paracuaro,MX,20.15,-100.7667,75.2,25,1,4.61,clear sky
355,Nampula,MZ,-15.1165,39.2666,73.4,94,75,2.3,light rain
356,Moshenskoye,RU,58.5102,34.5911,0.01,92,100,8.19,overcast clouds
357,Barraute,CA,48.4335,-77.6328,15.8,79,90,11.5,light snow
358,Klaksvik,FO,62.2266,-6.589,35.6,51,20,24.16,few clouds
359,Biak,ID,-0.9131,122.8766,76.68,76,100,2.73,overcast clouds
360,Saiha,IN,22.4833,92.9667,52.57,43,0,3.67,clear sky
361,Shingu,JP,33.7333,135.9833,44.51,80,0,6.31,clear sky
362,Bonavista,CA,48.6499,-53.1147,35.01,100,100,5.75,moderate rain
363,Bissau,GW,11.8636,-15.5977,87.8,29,0,11.5,clear sky
364,Idrinskoye,RU,54.3708,92.1358,16.72,95,100,3.4,overcast clouds
365,Sakaiminato,JP,35.55,133.2333,39.2,100,20,4.61,few clouds
366,Ixtapa,MX,20.7,-105.2,78.8,53,40,4.61,scattered clouds
367,Shuyskoye,RU,59.3736,41.0305,-4.41,90,100,8.99,light snow
368,Puerto Maldonado,PE,-12.6,-69.1833,87.8,66,75,2.3,broken clouds
369,Djougou,BJ,9.7085,1.666,89.6,13,8,2.3,clear sky
370,Samarai,PG,-10.6167,150.6667,82.31,77,100,5.82,overcast clouds
371,Wanning,CN,18.8003,110.3967,67.19,88,9,2.93,clear sky
372,Alihe,CN,50.5667,123.7167,-12.46,85,69,3.15,broken clouds
373,Mishelevka,RU,52.8575,103.1719,5.61,91,100,4.36,overcast clouds
374,Kaeo,NZ,-35.1,173.7833,60.01,93,100,3.0,overcast clouds
375,Duzce,TR,40.8389,31.1639,55.76,49,0,4.43,clear sky
376,Arraial Do Cabo,BR,-22.9661,-42.0278,75.2,78,75,5.75,moderate rain
377,Kabo,CF,7.6994,18.629,79.65,17,0,5.44,clear sky
378,Yumen,CN,40.2833,97.2,26.46,73,83,1.03,broken clouds
379,Iqaluit,CA,63.7506,-68.5145,24.8,86,90,17.27,overcast clouds
380,Samdrup Jongkhar,BT,26.9167,91.6167,54.18,52,65,4.63,broken clouds
381,Korla,CN,41.7597,86.1469,28.08,83,0,3.04,clear sky
382,Kajaani,FI,64.2273,27.7285,15.8,92,90,9.22,light snow
383,Pangnirtung,CA,66.1451,-65.7125,12.2,79,75,8.05,broken clouds
384,Aquiraz,BR,-3.9014,-38.3911,87.8,62,40,12.66,scattered clouds
385,Sur,OM,22.5667,59.5289,64.02,64,0,6.8,clear sky
386,Jaciara,BR,-15.9653,-54.9683,87.64,55,99,9.42,overcast clouds
387,Marsh Harbour,BS,26.5412,-77.0636,77.32,74,0,20.0,clear sky
388,Udachnyy,RU,66.4167,112.4,-36.44,79,0,4.43,clear sky
389,Namatanai,PG,-3.6667,152.4333,79.02,79,66,1.7,broken clouds
390,Sisimiut,GL,66.9395,-53.6735,21.07,76,0,14.16,clear sky
391,Barcelos,PT,41.5388,-8.6151,51.8,66,20,11.5,few clouds
392,Ambilobe,MG,-13.2,49.05,74.73,91,98,0.83,overcast clouds
393,Yar-Sale,RU,66.8333,70.8333,-31.16,84,100,14.03,overcast clouds
394,Lata,PT,40.1629,-8.3327,54.0,80,87,4.0,overcast clouds
395,Kulhudhuffushi,MV,6.6221,73.07,81.5,77,0,9.69,clear sky
396,San Carlos,VE,9.6612,-68.5827,93.16,35,100,0.49,overcast clouds
397,Los Llanos De Aridane,ES,28.6585,-17.9182,64.4,63,20,14.97,few clouds
398,Berlevag,NO,70.8578,29.0864,26.65,93,100,24.32,light snow
399,Petrovac,RS,44.3769,21.4192,51.01,83,100,3.2,overcast clouds
400,Teahupoo,PF,-17.8333,-149.2667,75.2,83,75,10.36,moderate rain
401,Prince Rupert,CA,54.3161,-130.3201,39.2,93,90,5.75,overcast clouds
402,Say,NE,13.1007,2.3689,89.6,8,100,5.75,dust
403,Aswan,EG,24.0934,32.907,65.16,29,0,9.95,clear sky
404,Panaba,MX,21.2833,-88.2667,90.28,50,1,11.61,clear sky
405,Morant Bay,JM,17.8815,-76.4093,86.0,70,20,25.32,few clouds
406,Cordoba,AR,-31.4135,-64.1811,89.01,51,20,14.97,few clouds
407,Kailua,US,21.4022,-157.7394,66.2,82,1,3.04,clear sky
408,Jodhpur,IN,26.2867,73.03,56.37,36,0,6.71,clear sky
409,Autun,FR,46.95,4.3,48.0,100,100,2.3,overcast clouds
410,Jamkhed,IN,18.7362,75.3121,69.55,27,0,13.98,clear sky
411,Quatre Cocos,MU,-20.2078,57.7625,80.01,83,40,6.91,scattered clouds
412,Alyangula,AU,-13.8483,136.4192,78.8,100,90,11.5,light rain
413,Esperance,AU,-33.8667,121.9,59.0,94,40,13.8,scattered clouds
414,Garowe,SO,8.4054,48.4845,70.2,75,0,15.66,clear sky
415,Ionia,US,42.9873,-85.0711,18.0,67,90,12.66,light snow
416,Awbari,LY,26.5921,12.7805,66.47,24,68,13.29,broken clouds
417,Bredasdorp,ZA,-34.5322,20.0403,69.8,78,100,9.22,overcast clouds
418,Vostok,RU,46.4856,135.8833,-12.14,91,100,2.57,overcast clouds
419,Ahipara,NZ,-35.1667,173.1667,60.01,85,87,5.44,overcast clouds
420,Maturin,VE,9.75,-63.1767,86.83,51,100,10.07,overcast clouds
421,Cap Malheureux,MU,-19.9842,57.6142,80.01,80,0,5.01,clear sky
422,Togur,RU,58.3631,82.8265,33.57,98,100,9.53,overcast clouds
423,Turukhansk,RU,65.8167,87.9833,-4.41,92,100,15.95,light snow
424,Carballo,ES,43.213,-8.691,48.0,79,75,3.0,broken clouds
425,Jayuya,PR,18.2186,-66.5916,87.01,48,67,8.99,broken clouds
426,Turayf,SA,31.6725,38.6637,48.2,76,0,11.5,clear sky
427,Thinadhoo,MV,0.5333,72.9333,81.79,75,11,14.0,few clouds
428,Gainesville,US,29.6516,-82.3248,55.4,88,90,9.22,overcast clouds
429,Narsaq,GL,60.9167,-46.05,33.8,27,1,18.41,clear sky
430,Gigmoto,PH,13.7796,124.39,78.51,85,60,12.15,broken clouds
431,Huesca,ES,42.1362,-0.4087,46.0,100,40,10.36,scattered clouds
432,Whitehorse,CA,60.7161,-135.0538,-13.0,76,75,4.61,broken clouds
433,Teguldet,RU,57.3064,88.1667,30.47,98,100,10.09,overcast clouds
434,San Quintin,MX,30.4833,-115.95,63.9,58,0,4.65,clear sky
435,Petropavlovsk-Kamchatskiy,RU,53.0452,158.6483,23.0,68,40,22.37,light snow
436,Acari,PE,-15.4311,-74.6158,80.62,52,100,11.23,overcast clouds
437,Novosheshminsk,RU,55.0651,51.2338,-0.2,90,100,13.82,overcast clouds
438,Troy,US,42.6056,-83.1499,23.0,58,40,17.27,scattered clouds
439,Tunoshna,RU,57.5459,40.1254,-2.2,71,75,8.95,broken clouds
440,Zhangye,CN,38.9342,100.4517,27.48,70,0,3.18,clear sky
441,Fortuna,US,40.5982,-124.1573,50.0,93,75,7.34,broken clouds
442,Port Blair,IN,11.6667,92.75,78.58,76,39,7.99,scattered clouds
443,Trairi,BR,-3.2778,-39.2689,85.1,63,99,13.35,overcast clouds
444,Salalah,OM,17.0151,54.0924,75.2,69,40,9.22,scattered clouds
445,Pimentel,PE,-6.8367,-79.9342,78.8,61,90,14.97,overcast clouds
446,Avera,US,33.194,-82.5271,51.8,57,90,8.05,overcast clouds
447,Yulara,AU,-25.2406,130.9889,73.4,35,0,9.22,clear sky
448,Mackay,AU,-21.15,149.2,77.0,88,100,4.61,overcast clouds
449,Praia Da Vitoria,PT,38.7333,-27.0667,62.6,77,40,11.07,scattered clouds
450,Halifax,CA,44.6453,-63.5724,45.0,61,61,24.16,broken clouds
451,Lodja,CD,-3.4833,23.4333,71.64,86,44,2.57,scattered clouds
452,Mariestad,SE,58.7097,13.8237,16.0,92,0,7.81,clear sky
453,Bilma,NE,18.6853,12.9164,67.95,22,83,6.8,broken clouds
454,Salinas,US,36.6777,-121.6555,62.01,71,1,6.91,clear sky
455,Limbiate,IT,45.5968,9.129,48.99,81,100,1.99,overcast clouds
456,Coos Bay,US,43.3665,-124.2179,46.0,93,90,4.61,overcast clouds
457,Chengde,CN,40.9725,117.9361,23.05,94,20,1.54,few clouds
458,Roald,NO,62.5833,6.1333,23.0,63,0,4.61,clear sky
459,Waverly,US,42.7392,-84.6208,19.99,67,90,21.85,haze
460,Farafangana,MG,-22.8167,47.8333,80.08,83,100,12.95,light rain
461,Batyrevo,RU,55.0675,47.6111,-0.49,91,100,13.38,overcast clouds
462,Yerbogachen,RU,61.2767,108.0108,-13.85,89,88,3.67,overcast clouds
463,Klamath Falls,US,42.2249,-121.7817,36.0,93,90,4.61,fog
464,Launceston,AU,-41.45,147.1667,55.99,94,75,9.22,broken clouds
465,Tupancireta,BR,-29.0806,-53.8358,76.06,51,0,5.23,clear sky
466,Nuuk,GL,64.1835,-51.7216,24.8,54,1,4.61,clear sky
467,Ninh Binh,VN,20.2539,105.975,66.0,87,0,2.84,clear sky
468,Kawalu,ID,-7.3817,108.2082,72.55,89,100,3.8,overcast clouds
469,Kpandae,GH,8.4689,-0.0113,92.37,21,1,4.12,clear sky
470,Tilichiki,RU,60.4667,166.1,5.99,89,100,14.0,overcast clouds
471,Terrasini,IT,38.146,13.0844,73.4,21,0,10.36,clear sky
472,Awjilah,LY,29.1081,21.2869,63.63,34,0,9.15,clear sky
473,Mulungu,BR,-7.0244,-35.4619,91.4,38,40,14.97,scattered clouds
474,Aniche,FR,50.33,3.2535,44.01,93,90,17.27,light rain
475,Domoni,KM,-12.2569,44.5319,81.57,71,99,2.82,overcast clouds
476,Mungwi,ZM,-10.1732,31.3694,65.26,94,100,4.9,overcast clouds
477,Damaturu,NG,11.747,11.9608,73.83,20,90,12.15,overcast clouds
478,Ngunguru,NZ,-35.6167,174.5,60.01,93,100,3.0,overcast clouds
479,Port Hawkesbury,CA,45.6169,-61.3485,48.0,70,20,14.97,few clouds
480,Uruzgan,AF,32.8333,66.0,45.97,47,42,3.49,scattered clouds
481,Kragero,NO,58.8693,9.4149,21.0,72,0,4.0,clear sky
482,Ust-Kuyga,RU,70.0167,135.6,-25.33,84,100,3.06,overcast clouds
483,Myronivka,UA,49.6601,30.9823,17.17,96,95,5.32,light snow
484,Srivardhan,IN,18.0333,73.0167,74.7,50,0,7.45,clear sky
485,Apt,FR,43.8833,5.4,59.0,63,90,19.57,overcast clouds
486,Bima,ID,-8.4667,118.7167,76.77,84,96,0.6,overcast clouds
487,Cheney,US,47.4874,-117.5758,37.99,75,75,24.16,broken clouds
488,Pedernales,DO,18.0384,-71.744,86.43,50,0,7.54,clear sky
489,Muisne,EC,0.6,-80.0333,84.2,84,75,3.44,light rain
490,Nome,US,64.5011,-165.4064,15.8,86,90,2.13,light snow
491,Carutapera,BR,-1.195,-46.02,87.53,59,3,10.18,clear sky
492,Khuzhir,RU,53.1939,107.3397,8.53,90,100,5.7,overcast clouds
493,Bauchi,NG,10.5,10.0,74.95,21,59,5.44,broken clouds
494,Linguere,SN,15.3953,-15.1193,77.0,36,0,6.91,clear sky
495,Nantucket,US,41.2835,-70.0995,43.0,61,1,18.41,clear sky
496,Palmerston,AU,-12.486,130.9833,82.4,83,75,10.36,broken clouds
497,Matara,LK,5.9485,80.5353,75.83,88,100,12.24,overcast clouds
498,Cayenne,GF,4.9333,-52.3333,78.8,94,75,9.22,broken clouds
499,Muskegon,US,43.3,-86.1334,18.0,73,90,11.5,light snow
500,Lethem,GY,3.3803,-59.7968,92.43,39,100,11.05,overcast clouds
501,Myaundzha,RU,63.0494,147.1858,-28.68,82,2,1.41,clear sky
502,Nyurba,RU,63.2842,118.3319,-33.11,84,31,2.01,scattered clouds
503,Seydisehir,TR,37.4193,31.8453,44.38,66,0,2.35,clear sky
504,Fukuma,JP,33.7667,130.4667,46.0,87,20,3.44,few clouds
505,Havoysund,NO,70.9963,24.6622,26.6,63,75,13.8,light snow
506,Aleksandrov Gay,RU,50.147,48.5704,19.27,87,94,15.14,overcast clouds
507,Thanh Hoa,VN,19.8,105.7667,63.97,90,0,2.19,clear sky
508,Beringovskiy,RU,63.05,179.3167,-8.48,88,4,8.14,clear sky
509,Odienne,CI,9.51,-7.5692,89.33,24,100,2.44,overcast clouds
510,Vila Velha,BR,-20.3297,-40.2925,86.0,66,20,14.97,few clouds
511,Huarmey,PE,-10.0681,-78.1522,75.85,65,21,10.42,few clouds
512,Batabano,CU,22.7164,-82.2881,80.6,78,75,10.36,broken clouds
513,Estevan,CA,49.1334,-102.9842,-14.8,63,1,13.8,clear sky
514,Antofagasta,CL,-23.65,-70.4,73.99,56,20,13.8,few clouds
515,Bambanglipuro,ID,-7.95,110.2833,76.8,86,98,4.59,overcast clouds
516,Hashimoto,JP,34.3167,135.6167,46.4,87,0,8.05,clear sky
517,Pasighat,IN,28.0667,95.3333,61.57,35,92,3.87,overcast clouds
518,Road Town,VG,18.4167,-64.6167,80.01,73,75,14.97,broken clouds
519,Yulin,CN,22.6333,110.15,62.94,80,0,3.36,clear sky
520,Ushumun,RU,52.7833,126.5333,-19.1,86,0,6.42,clear sky
521,Lima,PE,-12.0432,-77.0282,78.8,61,0,9.22,clear sky
522,Atherton,GB,53.5237,-2.4935,39.99,81,100,4.0,light rain
523,Wenzhou,CN,27.9994,120.6668,59.0,73,96,0.83,overcast clouds
524,Agadez,NE,19.75,10.25,67.66,22,71,8.25,broken clouds
525,Kabalo,CD,-6.05,26.9167,72.27,92,100,2.51,overcast clouds
526,Labuhan,ID,-6.8844,112.2051,77.83,86,0,10.09,clear sky
527,Mitchell,US,43.7094,-98.0298,5.0,51,20,17.27,few clouds
528,Tuburan,PH,6.6439,122.2736,75.2,94,75,1.14,broken clouds
529,Anyksciai,LT,55.5256,25.1026,3.7,95,98,3.22,overcast clouds
530,Venosa,IT,40.9613,15.8149,55.4,38,0,8.05,clear sky
531,Novoagansk,RU,61.9449,76.6625,34.7,99,100,9.66,light rain
532,Oriximina,BR,-1.7656,-55.8661,91.65,47,99,0.27,overcast clouds
533,Saint-Joseph,RE,-21.3667,55.6167,80.6,78,75,4.61,light rain
534,Saint-Georges,GD,12.0564,-61.7485,84.2,58,20,23.02,few clouds
535,Rocha,UY,-34.4833,-54.3333,82.69,39,0,15.79,clear sky
536,Lisakovsk,KZ,52.5369,62.4936,16.74,93,100,24.58,overcast clouds
537,Oranjemund,NA,-28.55,16.4333,65.41,89,6,14.9,clear sky
538,Tutoia,BR,-2.7619,-42.2744,89.6,62,20,13.8,few clouds
539,Darab,IR,28.7519,54.5444,56.1,35,0,5.5,clear sky
540,Khudumelapye,BW,-23.8833,24.75,66.25,93,100,8.79,light rain
541,Coruripe,BR,-10.1256,-36.1756,84.56,65,44,18.32,scattered clouds
542,Zheleznodorozhnyy,RU,55.7503,38.0042,3.2,71,75,17.9,broken clouds
543,Louga,RU,58.7372,29.8453,2.59,93,0,6.62,clear sky
544,Madang,PG,-5.2246,145.7966,76.44,90,93,7.9,overcast clouds
545,Itanagar,IN,27.1,93.6167,58.66,44,15,4.07,few clouds
546,Dwarka,IN,22.2394,68.9678,69.67,43,0,12.44,clear sky
547,Syedove,UA,47.0768,38.156,24.01,53,90,8.01,overcast clouds
548,Saint-Raymond,CA,45.467,-73.6095,26.01,50,100,5.75,overcast clouds
549,Arona,ES,28.0996,-16.681,66.0,55,40,5.75,scattered clouds
550,Olenegorsk,RU,68.15,33.3,19.0,92,99,7.78,light snow
551,Ormara,PK,25.2088,64.6357,67.95,48,0,4.94,clear sky
552,Basco,PH,20.4487,121.9702,74.03,89,100,19.42,overcast clouds
553,College,US,64.8569,-147.8028,-8.0,70,90,0.27,light snow
554,Antsohihy,MG,-14.8796,47.9875,76.37,90,100,3.04,overcast clouds
555,Amurzet,RU,47.6967,131.0981,-8.86,88,99,5.95,overcast clouds
556,Lively,CA,46.4334,-81.1498,18.0,57,75,19.57,snow
557,Krasnozatonskiy,RU,61.6758,50.9794,-0.4,78,100,15.66,light snow
558,Oistins,BB,13.0667,-59.5333,84.2,54,20,18.41,few clouds
559,Torbeyevo,RU,54.0797,43.2473,-1.73,92,99,9.66,overcast clouds
560,Cukai,MY,4.25,103.4167,77.0,88,42,2.3,scattered clouds
561,Misratah,LY,32.3754,15.0925,69.93,34,70,13.76,broken clouds
562,Rabo De Peixe,PT,37.8,-25.5833,61.0,88,75,17.27,broken clouds
563,Piacabucu,BR,-10.4056,-36.4344,85.1,63,7,17.34,clear sky
564,Dubbo,AU,-32.25,148.6167,62.6,84,90,2.3,overcast clouds
565,Broken Hill,AU,-31.95,141.4333,62.6,67,19,16.11,few clouds
566,Mercedes,AR,-34.6515,-59.4307,91.99,38,0,4.0,clear sky
567,Honningsvag,NO,70.9821,25.9704,28.36,92,100,24.67,light snow
568,Marsa Matruh,EG,31.3525,27.2453,59.0,82,0,4.61,clear sky
569,Paredon,MX,16.0333,-93.8667,84.88,41,0,9.19,clear sky
570,Dapaong,TG,10.8639,0.205,84.49,18,0,4.59,clear sky
571,Alekseyevka,RU,50.6309,38.6903,12.99,90,100,13.73,overcast clouds
572,Pedreiras,BR,-4.5688,-44.6003,85.86,66,18,3.94,few clouds
573,Fort Morgan,US,40.2503,-103.8,23.0,80,90,6.91,overcast clouds
574,Ciudad Guayana,VE,8.3533,-62.6528,87.01,61,100,4.0,overcast clouds
575,Sinnamary,GF,5.3833,-52.95,78.91,86,100,15.75,overcast clouds
576,Blairmore,CA,49.6,-114.4353,-0.4,85,100,9.22,light snow
577,Jaleswar,NP,26.6471,85.8008,53.55,79,6,0.47,clear sky
578,Horqueta,PY,-23.3428,-57.0597,85.48,35,0,6.85,clear sky
579,Flin Flon,CA,54.7682,-101.865,-25.6,62,1,8.05,snow
580,Okhotsk,RU,59.3833,143.3,0.43,89,92,9.78,overcast clouds
581,Adre,TD,13.4667,22.2,66.24,21,0,12.66,clear sky
582,Karpathos,GR,35.507,27.2132,60.8,82,0,6.91,clear sky
583,Catarama,EC,-1.5833,-79.4667,87.8,64,77,2.06,light rain
584,Dunedin,NZ,-45.8742,170.5036,57.99,87,0,4.0,clear sky
585,Nizwa,OM,22.9333,57.5333,55.85,52,0,3.98,clear sky
586,Rumoi,JP,43.9344,141.6428,21.6,93,81,2.42,broken clouds
587,Princeton,US,25.5384,-80.4089,75.2,94,90,6.91,overcast clouds
588,Biltine,TD,14.5333,20.9167,69.93,20,0,14.45,clear sky
589,Wanxian,CN,30.8039,108.3897,54.37,65,78,1.61,broken clouds
590,Bundaberg,AU,-24.85,152.35,75.99,83,40,4.61,scattered clouds
591,Alice Town,BS,25.7167,-79.3,76.08,82,0,17.94,clear sky
592,Sayyan,YE,15.1718,44.3244,48.29,73,4,0.72,clear sky
593,Bose,IT,45.4612,8.0137,46.99,98,100,3.24,moderate rain
594,Boguchany,RU,58.3814,97.4531,13.69,95,100,5.64,light snow
595,Veraval,IN,20.9,70.3667,69.62,32,0,11.45,clear sky
596,Bilibino,RU,68.0546,166.4372,-9.45,82,0,2.35,clear sky
597,Itacoatiara,BR,-3.1431,-58.4442,89.89,59,36,4.29,very heavy rain
598,Darnah,LY,32.767,22.6367,62.46,53,97,5.5,overcast clouds
599,Cockburn Town,TC,21.4612,-71.1419,82.4,65,40,16.11,scattered clouds
600,Payo,ID,-3.7508,103.6372,72.18,95,80,1.92,broken clouds
601,Pevek,RU,69.7008,170.3133,-1.48,87,100,3.87,overcast clouds
602,Plainview,US,40.7765,-73.4673,45.0,36,1,21.85,clear sky
603,Shahrud,IR,36.4182,54.9763,42.82,82,100,3.98,overcast clouds
604,Flinders,AU,-34.5833,150.8552,64.99,87,0,1.99,clear sky
605,Medea,DZ,36.2642,2.7539,60.8,72,40,4.61,scattered clouds
606,Cotonou,BJ,6.3654,2.4183,86.0,79,20,13.8,few clouds
607,Hokitika,NZ,-42.7167,170.9667,57.63,88,4,3.38,clear sky
608,Rockport,US,28.0206,-97.0544,68.0,73,90,9.22,haze
609,Te Anau,NZ,-45.4167,167.7167,52.39,83,16,0.85,few clouds
610,Mattru,SL,7.6244,-11.8332,82.72,59,67,7.25,broken clouds
611,West Wendover,US,40.7391,-114.0733,42.8,39,1,3.44,clear sky
612,Colares,PT,38.7992,-9.4469,53.01,76,75,19.57,broken clouds
613,Trincomalee,LK,8.5711,81.2335,78.53,84,48,14.03,scattered clouds
614,Maridi,SS,4.9158,29.4742,74.93,19,0,4.54,clear sky
615,Half Moon Bay,US,37.4636,-122.4286,62.01,87,1,6.91,mist
616,Port-Gentil,GA,-0.7193,8.7815,82.4,83,40,6.91,moderate rain
617,Betioky,MG,-23.7167,44.3833,76.46,83,0,2.59,clear sky
618,Huangnihe,CN,43.5583,128.0239,-2.16,89,0,6.26,clear sky
619,Hede,CN,33.7681,120.2517,45.73,75,0,6.53,clear sky
620,Crema,IT,45.3588,9.6683,48.99,93,100,5.99,overcast clouds
621,Srednekolymsk,RU,67.45,153.6833,-20.25,84,0,3.62,clear sky
622,Nelson Bay,AU,-32.7167,152.15,70.0,100,40,10.36,scattered clouds
623,Deputatskiy,RU,69.3,139.9,-35.57,85,7,1.63,clear sky
624,Kirakira,SB,-10.4544,161.9205,79.66,81,100,7.02,overcast clouds
625,Keetmanshoop,NA,-26.5833,18.1333,87.35,15,0,19.13,clear sky
626,Narimanov,RU,46.6927,47.8498,24.8,63,0,4.47,clear sky
627,Latung,PH,5.5,120.8833,81.19,79,100,6.13,overcast clouds
628,Leningradskiy,RU,69.3833,178.4167,-12.91,77,0,6.85,clear sky
629,Liling,CN,27.6667,113.5,48.2,100,9,2.24,clear sky
630,Maldonado,UY,-34.6667,-54.9167,82.4,42,0,21.85,clear sky
631,Ozu,JP,33.5,132.55,43.0,82,0,3.85,clear sky
632,Gombong,ID,-7.6072,109.5142,76.59,84,69,4.14,light rain
633,Barreirinhas,BR,-2.7469,-42.8264,85.64,60,47,11.59,scattered clouds
634,Edd,ER,13.9297,41.6925,74.32,72,42,14.38,scattered clouds
635,Sivaki,RU,52.6333,126.75,-20.52,85,0,5.97,clear sky
636,Kiunga,PG,-6.1219,141.2906,74.03,98,100,1.99,overcast clouds
637,Noumea,NC,-22.2763,166.4572,77.0,94,20,1.14,few clouds
638,Manadhoo,MV,5.7667,73.3833,81.68,73,0,8.08,clear sky
639,Dimitrovgrad,RU,54.2139,49.6184,1.4,71,95,11.18,overcast clouds
640,Lasa,IT,46.6166,10.7002,41.0,93,40,9.22,scattered clouds
641,Pontianak,ID,-0.0333,109.3333,77.0,94,90,3.44,overcast clouds
642,Wajima,JP,37.4,136.9,48.78,70,0,17.74,clear sky
643,Taksimo,RU,56.3444,114.8794,-10.48,78,97,1.1,overcast clouds
644,Calabozo,VE,8.9242,-67.4293,96.69,29,94,8.14,overcast clouds
645,Waddan,LY,29.1614,16.139,67.68,24,5,8.55,clear sky
646,Nioro,GM,13.35,-15.75,82.24,20,100,8.57,overcast clouds
647,Shelburne,CA,44.0787,-80.2041,19.99,85,99,20.87,overcast clouds
648,Mindupok,PH,6.0906,124.4233,77.4,75,100,3.53,overcast clouds
649,Alpena,US,45.0617,-83.4327,17.6,53,90,17.27,overcast clouds
650,Araouane,ML,18.9048,-3.5265,80.02,17,100,12.62,overcast clouds
651,Saint Austell,GB,50.3383,-4.7658,41.0,81,90,11.5,overcast clouds
652,Hudson Bay,CA,52.85,-102.3842,-19.82,81,34,7.65,scattered clouds
653,Bousse,BF,12.6606,-1.8922,89.6,15,9,3.44,dust
654,Tyukhtet,RU,56.5389,89.3011,26.47,98,98,8.43,overcast clouds
655,Monster,NL,52.0258,4.175,36.0,87,90,18.41,light snow
656,Padang,ID,-0.9492,100.3543,75.2,83,20,2.3,few clouds
657,Sire,NG,12.9299,5.2043,80.06,17,46,8.88,scattered clouds
658,Jiangkou,CN,25.4872,119.1986,59.0,94,90,4.47,mist
659,Sobolevo,RU,54.4299,31.8996,-0.08,93,84,8.88,broken clouds
660,Damietta,EG,31.4165,31.8133,62.6,82,0,8.05,clear sky
661,Mizdah,LY,31.4451,12.9801,66.69,25,98,8.23,overcast clouds
662,Mizur,RU,42.8531,44.0531,35.6,69,79,8.95,broken clouds
663,Sohag,EG,26.557,31.6948,64.4,52,0,6.91,clear sky
664,Kimbe,PG,-5.5502,150.1429,77.32,87,100,1.25,light rain
665,Alice Springs,AU,-23.7,133.8833,73.4,35,93,6.91,overcast clouds
666,Itoman,JP,26.1247,127.6694,66.2,88,40,3.44,scattered clouds
667,Amahai,ID,-3.3333,128.9167,78.87,80,100,3.36,overcast clouds
668,Los Arabos,CU,22.7281,-80.7214,89.31,44,15,18.03,moderate rain
669,Salamiyah,SY,35.0113,37.0532,52.56,74,0,7.76,clear sky
670,Tura,IN,25.5198,90.2201,57.63,68,100,1.9,overcast clouds
671,Lewistown,US,40.5992,-77.5714,37.99,35,1,13.8,clear sky
672,Baiao,BR,-2.7906,-49.6717,94.46,39,87,4.0,overcast clouds
673,Gillette,US,44.2911,-105.5022,6.8,78,90,9.22,light snow
674,Altay,CN,47.8667,88.1167,24.8,89,94,2.1,overcast clouds
675,Marana,US,32.4367,-111.2254,64.99,23,1,2.06,clear sky
676,Porto Nacional,BR,-10.7081,-48.4172,82.4,69,40,8.05,heavy intensity rain
677,Alugan,PH,12.2188,125.4808,79.2,86,88,15.26,overcast clouds
678,Maarianhamina,AX,60.0973,19.9348,17.6,93,20,5.75,mist
679,Palia Kalan,IN,28.45,80.5833,52.86,52,0,5.97,clear sky
680,Oxelosund,SE,58.6706,17.1015,10.4,92,0,5.75,clear sky
681,Marion,US,39.7684,-86.1555,25.0,46,75,3.44,broken clouds
682,Hualmay,PE,-11.0964,-77.6139,75.22,66,76,9.57,broken clouds
683,Riyadh,SA,24.6877,46.7219,62.6,63,0,9.22,clear sky
684,Olhao,PT,37.0286,-7.8411,53.6,82,20,17.27,few clouds
685,Ca Mau,VN,9.1769,105.15,73.35,85,98,2.62,overcast clouds
686,Esmeralda,CU,21.8525,-78.1169,89.6,45,40,5.75,scattered clouds
687,Myanaung,MM,18.2833,95.3167,69.84,57,0,2.06,clear sky
688,Churapcha,RU,62.0025,132.4325,-31.72,83,100,1.52,overcast clouds
689,Lincoln,US,40.8,-96.667,10.4,67,90,18.41,light snow
690,Eseka,CM,3.65,10.7667,78.19,78,0,3.69,clear sky
691,Tucumcari,US,35.1717,-103.725,53.6,16,1,8.05,clear sky
692,Antequera,ES,37.0194,-4.5612,57.99,76,20,5.75,few clouds
693,Skjervoy,NO,70.0311,20.9714,29.73,95,100,20.65,light snow
694,Aksarka,RU,66.5606,67.7975,-35.14,81,90,18.68,overcast clouds
695,Tukrah,LY,32.5341,20.5791,62.31,53,100,8.12,overcast clouds
696,San Carlos De Bariloche,AR,-41.1456,-71.3082,95.0,19,20,11.5,few clouds
697,Abu Dhabi,AE,24.4667,54.3667,73.4,56,0,8.05,clear sky
698,Zhoucheng,CN,35.9122,116.3117,47.05,45,0,3.85,clear sky
699,Kumla,SE,59.1277,15.1434,17.6,79,90,6.91,overcast clouds
700,Atlantic City,US,39.3643,-74.4229,50.0,29,20,23.02,few clouds
701,Dakar,SN,14.6937,-17.4441,66.2,68,0,16.11,clear sky
702,Coihueco,CL,-36.6167,-71.8333,62.6,94,90,2.3,mist
703,Dzilam Gonzalez,MX,21.2833,-88.9333,92.05,42,0,4.74,clear sky
704,Mampong,GH,7.0627,-1.4001,83.95,43,57,4.41,broken clouds
705,Chicama,PE,-7.8447,-79.1469,69.8,88,75,9.22,fog
706,Namibe,AO,-15.1961,12.1522,72.05,80,49,11.43,scattered clouds
707,Kon Tum,VN,14.35,108.0,60.4,92,33,2.33,scattered clouds
708,Kayes,ML,14.0,-11.0,85.98,13,100,8.19,overcast clouds
709,Port Macquarie,AU,-31.4333,152.9167,71.6,100,90,2.3,overcast clouds
710,Maluso,PH,6.543,121.8753,75.2,94,75,1.14,broken clouds
711,Russell,US,32.3502,-85.1999,48.2,66,90,8.05,overcast clouds
712,Nizhniy Kuranakh,RU,58.8353,125.4869,-21.3,82,89,1.77,overcast clouds
713,Kahului,US,20.8947,-156.47,69.01,72,20,4.61,few clouds
714,Gimli,CA,50.6336,-96.9907,-18.4,57,99,13.8,overcast clouds
715,Walker,US,30.7335,-95.5669,59.0,77,90,3.44,overcast clouds
716,Ucluelet,CA,48.9329,-125.5528,46.99,93,75,23.02,broken clouds
